[{"streetAddr":"7 E 10TH ST New York NY ","lat":"40.7332068","long":"-73.9946888","matchScore":"97.3372781065089"},{"streetAddr":"155 E 22ND ST New York NY 10010","lat":"40.7431787","long":"-73.9952777","matchScore":"95.3254437869822"},{"streetAddr":"61 FOURTH AVE New York NY 10003","lat":"40.7307719","long":"-73.9903164","matchScore":"100"},{"streetAddr":"208 W 13TH ST New York NY 10011","lat":"40.7381228","long":"-74.0010304","matchScore":"100"},{"streetAddr":"123 E 15TH ST New York NY 10003","lat":"40.7346341","long":"-73.9879773","matchScore":"100"},{"streetAddr":"61 GRAMERCY PARK N New York NY 10010","lat":"40.7387068","long":"-73.986572","matchScore":"97.6331360946746"},{"streetAddr":"155 E 22ND ST New York NY 10010","lat":"40.7431787","long":"-73.9952777","matchScore":"95.3254437869822"},{"streetAddr":"127 E 22ND ST New York NY 10010","lat":"40.7390247","long":"-73.9854161","matchScore":"100"},{"streetAddr":"602 E 9TH ST New York NY 10009","lat":"40.7260409","long":"-73.9800393","matchScore":"100"},{"streetAddr":"125 W 14TH ST New York NY 10011","lat":"40.7379244","long":"-73.9976813","matchScore":"100"},{"streetAddr":"346 W 20TH ST New York NY 10011","lat":"40.7441452","long":"-74.0019191","matchScore":"100"},{"streetAddr":"125 W 14TH ST New York NY 10011","lat":"40.7379244","long":"-73.9976813","matchScore":"100"},{"streetAddr":"414 E 14TH ST New York NY 10009","lat":"40.741201","long":"-74.006368","matchScore":"94.792899408284"},{"streetAddr":"119 NINTH AVE New York NY 10011","lat":"40.7432442","long":"-74.0039393","matchScore":"100"},{"streetAddr":"202 W 24 ST New York NY 10011","lat":"40.7449478","long":"-73.995862","matchScore":"100"},{"streetAddr":"28 GRAMERCY PARK S New York NY 10003","lat":"40.7371499","long":"-73.9853123","matchScore":"100"},{"streetAddr":"50 E 7TH ST New York NY 10003","lat":"40.6519369","long":"-73.9750389","matchScore":"97.8698224852071"},{"streetAddr":"273 BOWERY New York NY 10003","lat":"40.7236736","long":"-73.9924832","matchScore":"99.4674556213018"},{"streetAddr":"802 BROADWAY New York NY 10003","lat":"40.7320395","long":"-73.991189","matchScore":"100"},{"streetAddr":"28 GRAMMERCY PARK S New York NY 10010","lat":"40.7371499","long":"-73.9853123","matchScore":"95.9763313609467"},{"streetAddr":"209 E 16TH ST New York NY 10003","lat":"40.7345135","long":"-73.9854432","matchScore":"100"},{"streetAddr":"44 2ND AVE New York NY 10003","lat":"40.7251086","long":"-73.9899858","matchScore":"100"},{"streetAddr":"229 W 14TH ST New York NY 10011","lat":"40.7392489","long":"-74.0008788","matchScore":"100"},{"streetAddr":"229 W 14TH ST New York NY 10011","lat":"40.7392489","long":"-74.0008788","matchScore":"100"},{"streetAddr":"208 W 13TH ST New York NY 10011","lat":"40.7381228","long":"-74.0010304","matchScore":"100"},{"streetAddr":"28 GRAMERCY PARK S New York NY 10003","lat":"40.7371499","long":"-73.9853123","matchScore":"100"},{"streetAddr":"208 W 13TH ST New York NY 10001","lat":"40.7381228","long":"-74.0010304","matchScore":"98.9349112426035"},{"streetAddr":"307 W 26TH ST New York NY 10011","lat":"40.6427157","long":"-73.9524417","matchScore":"93.7278106508876"},{"streetAddr":"343 W 25TH ST New York NY 10001","lat":"40.747411","long":"-73.9992698","matchScore":"100"},{"streetAddr":"80 SAINT MARKS PL New York NY 10003","lat":"40.7276521","long":"-73.9857329","matchScore":"100"},{"streetAddr":"208 W 13TH ST New York NY 10011","lat":"40.7381228","long":"-74.0010304","matchScore":"100"},{"streetAddr":"51 E 25TH ST New York NY 10010","lat":"40.7419488","long":"-73.9861549","matchScore":"100"},{"streetAddr":"155 E 22ND ST New York NY 10010","lat":"40.7431787","long":"-73.9952777","matchScore":"95.3254437869822"},{"streetAddr":"7 E 10TH ST New York NY 10003","lat":"40.7332068","long":"-73.9946888","matchScore":"100"},{"streetAddr":"315 W 22ND ST New York NY 10011","lat":"40.6592027","long":"-73.9911184","matchScore":"93.7278106508876"},{"streetAddr":"15 RUTHERFORD PL New York NY 10003","lat":"40.7337834","long":"-73.985098","matchScore":"100"},{"streetAddr":"25 E 15TH CONFERENCE New York NY ","lat":"40.7361047","long":"-73.9914936","matchScore":"91.4201183431953"},{"streetAddr":"175 9TH AVE New York NY 10011","lat":"40.6717748","long":"-73.9913909","matchScore":"91.9526627218935"},{"streetAddr":"19 UNION SQ W New York NY 10003","lat":"40.7360864","long":"-73.9912277","matchScore":"100"},{"streetAddr":"155 E 22ND ST New York NY 10010","lat":"40.7431787","long":"-73.9952777","matchScore":"95.3254437869822"},{"streetAddr":"423 E 23RD ST New York NY 10010","lat":"40.7368113","long":"-73.9772015","matchScore":"100"},{"streetAddr":"209 E 16TH ST New York NY 10003","lat":"40.7345135","long":"-73.9854432","matchScore":"100"},{"streetAddr":"411 E 12TH ST New York NY 10009","lat":"40.729824","long":"-73.982816","matchScore":"100"},{"streetAddr":"209 E 16TH ST New York NY 10003","lat":"40.7345135","long":"-73.9854432","matchScore":"100"},{"streetAddr":"239 E 21ST ST New York NY 10009","lat":"40.743614","long":"-73.9982324","matchScore":"94.792899408284"},{"streetAddr":"12 W 12TH ST New York NY 10011","lat":"40.7341967","long":"-73.9936756","matchScore":"94.792899408284"},{"streetAddr":"44 2ND AVE New York NY 10003","lat":"40.7251086","long":"-73.9899858","matchScore":"100"},{"streetAddr":"208 W 13TH ST New York NY 10011","lat":"40.7381228","long":"-74.0010304","matchScore":"100"},{"streetAddr":"12 W 11TH ST New York NY 10011","lat":"40.7341868","long":"-73.9957178","matchScore":"100"},{"streetAddr":"116 W 11TH ST New York NY ","lat":"40.7355598","long":"-73.9990141","matchScore":"97.3372781065089"},{"streetAddr":"80 5TH AVE New York NY 10011","lat":"40.7358709","long":"-73.9939317","matchScore":"100"},{"streetAddr":"116 W 11TH ST New York NY 10011","lat":"40.7355598","long":"-73.9990141","matchScore":"100"},{"streetAddr":"155 E 22ND ST New York NY 10010","lat":"40.7431787","long":"-73.9952777","matchScore":"95.3254437869822"},{"streetAddr":"319 EASTR 24TH ST New York NY 10010","lat":"40.742272","long":"-73.987907","matchScore":"60"},{"streetAddr":"10 E UNION SQ New York NY 10003","lat":"40.7348335","long":"-73.9897815","matchScore":"99.3491124260355"},{"streetAddr":"206 208 E 11TH ST New York NY 10003","lat":"40.7309636","long":"-73.9880637","matchScore":"97.6331360946746"},{"streetAddr":"123 E 15TH ST New York NY 10003","lat":"40.7346341","long":"-73.9879773","matchScore":"100"},{"streetAddr":"411 E 12TH ST New York NY 10009","lat":"40.729824","long":"-73.982816","matchScore":"100"},{"streetAddr":"125 W 14TH ST New York NY 10011","lat":"40.7379244","long":"-73.9976813","matchScore":"100"},{"streetAddr":"208 W 13TH ST New York NY 10011","lat":"40.7381228","long":"-74.0010304","matchScore":"100"},{"streetAddr":"10 UNION SQ E New York NY 10003","lat":"40.7348335","long":"-73.9897815","matchScore":"100"},{"streetAddr":"155 W 22ND ST New York NY 10011","lat":"40.7431787","long":"-73.9952777","matchScore":"100"},{"streetAddr":"208 W 13TH ST New York NY 10011","lat":"40.7381228","long":"-74.0010304","matchScore":"100"},{"streetAddr":"12 W 12TH ST New York NY 10011","lat":"40.7341967","long":"-73.9936756","matchScore":"94.792899408284"},{"streetAddr":"20 WASHINGTON SQ N New York NY 10011","lat":"40.7319436","long":"-73.9977667","matchScore":"100"},{"streetAddr":"344 E 14TH ST New York NY 10003","lat":"40.7314102","long":"-73.9832013","matchScore":"100"},{"streetAddr":"155 W 22ND ST New York NY 10011","lat":"40.7431787","long":"-73.9952777","matchScore":"100"},{"streetAddr":"208 W 13TH ST New York NY 10011","lat":"40.7381228","long":"-74.0010304","matchScore":"100"},{"streetAddr":"602 E 9TH ST New York NY 10009","lat":"40.7260409","long":"-73.9800393","matchScore":"100"},{"streetAddr":"208 W 13TH ST New York NY 10011","lat":"40.7381228","long":"-74.0010304","matchScore":"100"},{"streetAddr":"208 W 13TH ST New York NY 10011","lat":"40.7381228","long":"-74.0010304","matchScore":"100"},{"streetAddr":"19 UNION SQ W New York NY 10003","lat":"40.7360864","long":"-73.9912277","matchScore":"100"},{"streetAddr":"173 E 3RD ST New York NY 10009","lat":"40.7233431","long":"-73.9843062","matchScore":"100"},{"streetAddr":"50 E 7TH ST New York NY 10003","lat":"40.6519369","long":"-73.9750389","matchScore":"97.8698224852071"}]